City_ID,City,Lat,Lng,Max Temp,Humidity,Cloudiness,Wind Speed,Country,Date
0,udachny,66.4167,112.4,21.02,30,5,6.89,RU,08-07-2023
1,cody,44.5263,-109.0565,13.34,78,0,2.57,US,08-07-2023
2,stanley,54.868,-1.6985,25.85,54,20,2.57,GB,08-07-2023
3,edinburgh of the seven seas,-37.0676,-12.3116,13.83,81,88,9.61,SH,08-07-2023
4,tralee,52.2704,-9.7026,16.14,77,40,5.66,IE,08-07-2023
5,kavaratti,10.5669,72.642,28.15,78,100,8.35,IN,08-07-2023
6,bethel,41.3712,-73.414,22.89,91,75,0.0,US,08-07-2023
7,mount gambier,-37.8333,140.7667,10.98,69,100,7.33,AU,08-07-2023
8,adamstown,-25.066,-130.1015,21.27,71,100,6.84,PN,08-07-2023
9,vilyuchinsk,52.9306,158.4028,13.15,93,100,0.96,RU,08-07-2023
10,qoryooley,1.7878,44.53,30.08,48,55,9.36,SO,08-07-2023
11,blackmans bay,-43.0167,147.3167,8.07,86,83,6.84,AU,08-07-2023
12,yellowknife,62.456,-114.3525,15.29,67,40,2.57,CA,08-07-2023
13,puerto deseado,-47.7503,-65.8938,0.1,76,0,5.23,AR,08-07-2023
14,kruisfontein,-34.0033,24.7314,16.6,46,14,5.99,ZA,08-07-2023
15,swakopmund,-22.6833,14.5333,15.47,82,0,0.89,NA,08-07-2023
16,del rio,29.3627,-100.8968,26.06,81,75,4.12,US,08-07-2023
17,grytviken,-54.2811,-36.5092,-5.79,83,34,4.92,GS,08-07-2023
18,waitangi,-43.9535,-176.5597,11.23,66,72,8.48,NZ,08-07-2023
19,puerto natales,-51.7236,-72.4875,-2.94,92,15,1.34,CL,08-07-2023
20,petropavlovsk-kamchatsky,53.0452,158.6483,12.33,100,100,3.0,RU,08-07-2023
21,zaozersk,69.4005,32.4476,11.44,61,32,5.3,RU,08-07-2023
22,ushuaia,-54.8,-68.3,3.81,75,75,10.8,AR,08-07-2023
23,touros,-5.1989,-35.4608,24.45,86,83,3.19,BR,08-07-2023
24,tiksi,71.6872,128.8694,2.99,68,100,8.78,RU,08-07-2023
25,port-aux-francais,-49.35,70.2167,3.06,62,100,9.58,TF,08-07-2023
26,talnakh,69.4865,88.3972,23.45,33,93,7.09,RU,08-07-2023
27,klyuchi,52.2667,79.1667,26.23,52,91,7.18,RU,08-07-2023
28,salinopolis,-0.6136,-47.3561,25.28,85,13,3.85,BR,08-07-2023
29,linxi,39.7,118.4333,31.81,41,71,4.4,CN,08-07-2023
30,thal,35.4791,72.2439,22.38,54,8,3.19,PK,08-07-2023
31,christchurch,-43.5333,172.6333,11.62,91,100,2.68,NZ,08-07-2023
32,daru,-9.0763,143.2092,25.07,86,100,7.8,PG,08-07-2023
33,praia da vitoria,38.7333,-27.0667,20.98,73,40,3.12,PT,08-07-2023
34,mont-dore,-22.2833,166.5833,23.33,99,100,3.34,NC,08-07-2023
35,lihue,21.9789,-159.3672,26.77,75,75,8.75,US,08-07-2023
36,bredasdorp,-34.5322,20.0403,12.69,73,36,10.17,ZA,08-07-2023
37,margate,51.3813,1.3862,22.17,73,19,5.09,GB,08-07-2023
38,hithadhoo,-0.6,73.0833,28.1,68,100,1.93,MV,08-07-2023
39,coxim,-18.5067,-54.76,17.95,53,2,1.59,BR,08-07-2023
40,chengtangcun,35.0771,117.1518,39.08,21,40,3.52,CN,08-07-2023
41,kinablangan,7.6947,126.5503,27.77,81,100,1.2,PH,08-07-2023
42,kodiak,57.79,-152.4072,7.73,87,0,2.06,US,08-07-2023
43,general cabrera,-32.8131,-63.8724,6.81,89,0,2.27,AR,08-07-2023
44,jamestown,42.097,-79.2353,13.17,98,0,0.45,US,08-07-2023
45,vila franca do campo,37.7167,-25.4333,20.23,59,60,1.73,PT,08-07-2023
46,quiberon,47.4841,-3.1196,23.95,82,76,5.37,FR,08-07-2023
47,pak phanang,8.3511,100.202,27.01,81,100,2.02,TH,08-07-2023
48,makoua,0.0069,15.6333,29.69,54,78,2.07,CG,08-07-2023
49,sao gabriel da cachoeira,-0.1303,-67.0892,22.11,100,98,0.8,BR,08-07-2023
50,port lincoln,-34.7333,135.8667,13.75,73,52,8.04,AU,08-07-2023
51,al hazm,16.1641,44.7769,39.54,6,17,3.1,YE,08-07-2023
52,hawaiian paradise park,19.5933,-154.9731,22.8,96,100,2.57,US,08-07-2023
53,nizhnevartovsk,60.9344,76.5531,23.01,53,20,4.02,RU,08-07-2023
54,tibati,6.4667,12.6333,21.24,91,100,1.23,CM,08-07-2023
55,sassandra,4.95,-6.0833,25.41,80,100,3.25,CI,08-07-2023
56,ilulissat,69.2167,-51.1,6.01,93,100,2.57,GL,08-07-2023
57,port mathurin,-19.6833,63.4167,23.63,69,30,11.84,MU,08-07-2023
58,albany,42.6001,-73.9662,20.73,94,100,1.4,US,08-07-2023
59,anadyr,64.75,177.4833,8.28,87,75,4.0,RU,08-07-2023
60,minas de marcona,-15.2119,-75.1103,10.56,92,33,4.28,PE,08-07-2023
61,grand-bassam,5.2118,-3.7388,26.98,83,100,3.87,CI,08-07-2023
62,bubaque,11.2833,-15.8333,27.25,73,98,2.27,GW,08-07-2023
63,west island,-12.1568,96.8225,26.99,78,40,5.66,CC,08-07-2023
64,margaret river,-33.95,115.0667,15.45,74,100,5.41,AU,08-07-2023
65,saldanha,-33.0117,17.9442,13.65,70,11,9.78,ZA,08-07-2023
66,stephenville,32.2207,-98.2023,26.8,76,40,1.54,US,08-07-2023
67,punta del este,-34.9667,-54.95,11.04,79,0,3.13,UY,08-07-2023
68,bilibino,68.0546,166.4372,19.15,38,44,2.2,RU,08-07-2023
69,guiuan,11.0333,125.7247,29.21,75,100,4.5,PH,08-07-2023
70,utrik,11.2278,169.8474,28.09,82,56,8.72,MH,08-07-2023
71,wailua homesteads,22.0669,-159.378,26.44,81,75,8.75,US,08-07-2023
72,basco,20.4487,121.9702,29.64,71,12,2.91,PH,08-07-2023
73,happy valley-goose bay,53.3168,-60.3315,18.17,82,75,0.0,CA,08-07-2023
74,jimbolia,45.7914,20.7172,26.27,46,0,5.32,RO,08-07-2023
75,weno,7.4515,151.8468,25.97,94,100,6.69,FM,08-07-2023
76,mirik,26.8945,88.1848,22.48,81,83,1.99,IN,08-07-2023
77,punta arenas,-53.15,-70.9167,-1.94,86,0,3.6,CL,08-07-2023
78,gadzhiyevo,69.2551,33.3362,9.11,73,25,6.14,RU,08-07-2023
79,kingston,17.997,-76.7936,27.53,82,20,3.6,JM,08-07-2023
80,talcahuano,-36.7167,-73.1167,11.82,87,100,4.12,CL,08-07-2023
81,granite shoals,30.5891,-98.3839,25.4,80,40,1.54,US,08-07-2023
82,thompson,55.7435,-97.8558,12.09,76,100,3.6,CA,08-07-2023
83,enewetak,11.3474,162.3373,28.22,83,100,8.26,MH,08-07-2023
84,aykhal,66.0,111.5,19.43,42,39,8.14,RU,08-07-2023
85,akjoujt,19.6969,-14.4164,30.35,41,54,4.14,MR,08-07-2023
86,revda,56.801,59.9303,27.27,32,43,3.42,RU,08-07-2023
87,whitehorse,60.7161,-135.0538,20.43,40,40,1.54,CA,08-07-2023
88,olonkinbyen,70.9221,-8.7187,5.53,90,99,5.62,SJ,08-07-2023
89,krutinka,56.0055,71.5113,22.46,49,2,6.3,RU,08-07-2023
90,rudbar,30.15,62.6,40.98,8,0,2.29,AF,08-07-2023
91,papao,-17.75,-149.55,24.82,72,77,9.26,PF,08-07-2023
92,tazovsky,67.4667,78.7,15.91,59,79,4.78,RU,08-07-2023
93,port elizabeth,-33.918,25.5701,17.95,67,0,5.66,ZA,08-07-2023
94,sao felix do xingu,-6.6447,-51.995,20.01,73,84,0.34,BR,08-07-2023
95,grand falls-windsor,48.9332,-55.6649,15.28,95,76,0.79,CA,08-07-2023
96,colonia,50.9333,6.95,31.14,35,0,4.63,DE,08-07-2023
97,jingmen,31.0336,112.2047,28.98,85,92,2.45,CN,08-07-2023
98,libreville,0.3925,9.4537,25.01,78,75,4.63,GA,08-07-2023
99,sarkand,45.41,79.9186,26.73,36,96,1.74,KZ,08-07-2023
100,ancud,-41.8697,-73.8203,7.0,90,100,6.52,CL,08-07-2023
101,yemva,62.59,50.8594,13.65,91,100,3.09,RU,08-07-2023
102,sinalunga,43.2152,11.7495,29.01,33,76,1.33,IT,08-07-2023
103,chiredzi,-21.05,31.6667,27.87,28,0,0.49,ZW,08-07-2023
104,iqaluit,63.7506,-68.5145,6.85,87,75,0.0,CA,08-07-2023
105,lebu,-37.6167,-73.65,10.97,79,94,5.9,CL,08-07-2023
106,pyhajarvi,67.0701,27.2176,17.23,32,19,3.62,FI,08-07-2023
107,saint-philippe,-21.3585,55.7679,25.77,76,76,6.6,RE,08-07-2023
108,alice springs,-23.7,133.8833,13.75,44,93,3.82,AU,08-07-2023
109,chonchi,-42.6128,-73.8092,6.18,97,100,2.72,CL,08-07-2023
110,arraias,-12.9288,-46.9437,17.03,60,0,1.97,BR,08-07-2023
111,lompoc,34.6391,-120.4579,15.43,83,100,7.6,US,08-07-2023
112,portland,45.5234,-122.6762,15.76,85,0,2.57,US,08-07-2023
113,yekaterinoslavka,50.3734,129.1139,26.37,66,0,0.92,RU,08-07-2023
114,san antonio de pale,-1.4014,5.6325,22.95,90,43,5.88,GQ,08-07-2023
115,sarandi del yi,-33.35,-55.6333,6.4,84,37,3.86,UY,08-07-2023
116,zamora,-4.0692,-78.9567,22.71,98,100,0.45,EC,08-07-2023
117,fernie,49.5,-115.0687,9.11,95,17,2.03,CA,08-07-2023
118,mahibadhoo,3.7833,72.9667,28.16,71,16,3.11,MV,08-07-2023
119,coyhaique,-45.5752,-72.0662,-3.03,93,100,1.03,CL,08-07-2023
120,haiku-pauwela,20.9219,-156.3051,22.25,86,100,5.14,US,08-07-2023
121,khandyga,62.6667,135.6,14.84,86,75,4.12,RU,08-07-2023
122,avellaneda,-29.1176,-59.6583,16.52,90,100,3.28,AR,08-07-2023
123,rio grande,-32.035,-52.0986,13.3,89,100,5.77,BR,08-07-2023
124,flying fish cove,-10.4217,105.6791,25.82,78,100,5.66,CX,08-07-2023
125,smithers,54.7804,-127.1743,15.18,88,40,0.0,CA,08-07-2023
126,vilyuysk,63.7553,121.6247,18.14,36,3,5.37,RU,08-07-2023
127,rutland,43.6167,-73.0162,18.9,98,75,1.54,US,08-07-2023
128,sao raimundo nonato,-9.0153,-42.6994,21.19,79,0,1.63,BR,08-07-2023
129,tolanaro,-25.0319,46.9987,23.04,78,40,6.69,MG,08-07-2023
130,ust-nera,64.5667,143.2,16.09,78,100,2.72,RU,08-07-2023
131,melekeok village,7.4957,134.6367,27.31,83,75,1.54,PW,08-07-2023
132,fort st. john,56.2499,-120.8529,13.94,62,40,2.57,CA,08-07-2023
133,hermanus,-34.4187,19.2345,13.22,75,44,12.09,ZA,08-07-2023
134,ormara,25.2088,64.6357,29.26,79,100,7.57,PK,08-07-2023
135,xiaogan,30.9167,113.9,28.05,80,68,4.56,CN,08-07-2023
136,chui,-33.6971,-53.4616,10.49,77,63,3.22,UY,08-07-2023
137,kosciusko,33.0576,-89.5876,22.79,97,54,1.55,US,08-07-2023
138,peace river,56.2501,-117.286,15.36,76,0,0.0,CA,08-07-2023
139,hasaki,35.7333,140.8333,29.01,85,100,10.21,JP,08-07-2023
140,cabedelo,-6.9811,-34.8339,23.37,88,62,3.93,BR,08-07-2023
141,ribeira grande,38.5167,-28.7,20.22,64,20,1.54,PT,08-07-2023
142,aasiaat,68.7098,-52.8699,3.7,97,100,3.18,GL,08-07-2023
143,dryden,49.7833,-92.7503,10.16,87,0,1.54,CA,08-07-2023
144,coquimbo,-29.9533,-71.3436,7.85,87,0,3.09,CL,08-07-2023
145,olyokminsk,60.3736,120.4264,21.79,44,100,5.21,RU,08-07-2023
146,jayapura,-2.5333,140.7,27.66,92,100,2.82,ID,08-07-2023
147,alpine,32.835,-116.7664,14.38,83,100,0.0,US,08-07-2023
148,banda aceh,5.5577,95.3222,29.22,69,100,5.67,ID,08-07-2023
149,constantia,44.1833,28.65,24.38,68,100,11.09,RO,08-07-2023
150,belyy yar,53.6039,91.3903,25.94,50,40,3.0,RU,08-07-2023
151,sao joao do piaui,-8.3581,-42.2467,23.13,77,0,3.51,BR,08-07-2023
152,severo-yeniseyskiy,60.3725,93.0408,24.51,43,86,2.13,RU,08-07-2023
153,malanville,11.8685,3.3899,31.32,51,99,4.31,BJ,08-07-2023
154,mesquite,32.7668,-96.5992,28.36,78,78,1.79,US,08-07-2023
155,college,64.8569,-147.8028,13.99,87,100,8.23,US,08-07-2023
156,sudzha,51.1976,35.2726,27.84,61,63,5.7,RU,08-07-2023
157,san patricio,28.017,-97.5169,28.92,96,2,2.8,US,08-07-2023
158,qingyuan,23.7,113.0333,35.99,62,42,4.41,CN,08-07-2023
159,al qadarif,14.0349,35.3834,29.72,52,94,5.23,SD,08-07-2023
160,luganville,-15.5333,167.1667,24.35,82,16,4.23,VU,08-07-2023
161,aswan,24.0934,32.907,38.23,15,18,5.47,EG,08-07-2023
162,labrador city,52.9463,-66.9114,13.95,94,75,1.54,CA,08-07-2023
163,carutapera,-1.195,-46.02,24.57,90,13,2.12,BR,08-07-2023
164,noosa heads,-26.3833,153.15,12.97,49,0,3.51,AU,08-07-2023
165,kailua-kona,19.6406,-155.9956,25.98,83,20,2.57,US,08-07-2023
166,port hueneme,34.1478,-119.1951,17.51,91,0,0.0,US,08-07-2023
167,villa huidobro,-34.8383,-64.5869,5.13,76,45,3.39,AR,08-07-2023
168,zanjan,36.6736,48.4787,32.83,14,0,9.77,IR,08-07-2023
169,vadso,70.0744,29.7487,10.49,76,40,2.57,NO,08-07-2023
170,nampula,-15.1165,39.2666,22.97,68,75,3.6,MZ,08-07-2023
171,suntar,62.1444,117.6319,19.22,49,82,2.87,RU,08-07-2023
172,tsiombe,-25.3,45.4833,28.17,36,0,3.72,MG,08-07-2023
173,isafjordur,66.0755,-23.124,10.02,71,0,0.51,IS,08-07-2023
174,nagqu,31.5,92.0,13.42,63,100,2.72,CN,08-07-2023
175,atafu village,-8.5421,-172.5159,28.94,74,100,8.79,TK,08-07-2023
176,afaahiti,-17.75,-149.2833,23.93,74,92,9.09,PF,08-07-2023
177,mariental,-24.6333,17.9667,22.73,16,0,3.47,NA,08-07-2023
178,anahuac,27.2333,-100.15,26.7,75,0,6.64,MX,08-07-2023
179,vorgashor,67.5833,63.95,13.84,77,99,3.87,RU,08-07-2023
180,dalandzadgad,43.5708,104.425,28.6,22,11,5.96,MN,08-07-2023
181,port-vila,-17.7338,168.3219,19.78,94,20,1.54,VU,08-07-2023
182,papatowai,-46.5619,169.4708,6.69,91,26,3.44,NZ,08-07-2023
183,mahina,-17.5065,-149.489,24.87,73,0,2.06,PF,08-07-2023
184,karratha,-20.7377,116.8463,20.73,30,3,2.46,AU,08-07-2023
185,san jose del cabo,23.0589,-109.6977,28.66,79,6,0.45,MX,08-07-2023
186,cova figueira,14.8905,-24.2934,23.25,83,41,3.33,CV,08-07-2023
187,shiguai,40.7058,110.2856,27.33,27,14,7.19,CN,08-07-2023
188,greymouth,-42.4667,171.2,10.5,94,100,1.23,NZ,08-07-2023
189,jilib,0.4883,42.7854,32.34,37,31,7.76,SO,08-07-2023
190,richards bay,-28.783,32.0377,28.34,24,3,1.35,ZA,08-07-2023
191,hilo,19.7297,-155.09,22.92,96,100,2.57,US,08-07-2023
192,soio,-6.1349,12.3689,24.46,69,82,3.5,AO,08-07-2023
193,bafq,31.6128,55.4107,37.54,8,0,4.83,IR,08-07-2023
194,jumla,29.2747,82.1838,20.48,89,100,2.01,NP,08-07-2023
195,sudden valley,48.7229,-122.3466,14.9,85,0,3.6,US,08-07-2023
196,wanganui,-39.9333,175.05,9.22,94,82,0.45,NZ,08-07-2023
197,badger,64.8,-147.5333,13.95,87,100,8.23,US,08-07-2023
198,codrington,-38.2667,141.9667,11.23,67,100,9.99,AU,08-07-2023
199,santa cruz,-17.8,-63.1667,22.7,94,75,4.12,BO,08-07-2023
200,avarua,-21.2078,-159.775,24.03,94,40,2.06,CK,08-07-2023
201,porangatu,-13.4408,-49.1486,18.68,56,0,1.24,BR,08-07-2023
202,al ghayzah,16.2079,52.176,31.66,63,89,4.96,YE,08-07-2023
203,palikir - national government center,6.9248,158.1611,25.47,100,100,5.14,FM,08-07-2023
204,egilsstadir,65.2653,-14.3948,9.95,87,75,1.03,IS,08-07-2023
205,invercargill,-46.4,168.35,6.14,94,34,2.36,NZ,08-07-2023
206,newman,37.3138,-121.0208,16.13,76,0,1.98,US,08-07-2023
207,la passe,45.5549,-0.8967,26.12,73,69,2.57,FR,08-07-2023
208,port alfred,-33.5906,26.891,18.43,73,14,1.79,ZA,08-07-2023
209,nikolayevsk-on-amure,53.1406,140.73,21.11,88,38,1.64,RU,08-07-2023
210,mumford,5.2618,-0.759,26.17,80,100,5.08,GH,08-07-2023
211,new norfolk,-42.7826,147.0587,8.72,80,94,6.87,AU,08-07-2023
212,nemuro,43.3236,145.575,13.69,98,83,1.83,JP,08-07-2023
213,kapa'a,22.0752,-159.319,27.18,80,75,8.75,US,08-07-2023
214,paracuru,-3.41,-39.0306,24.5,84,9,3.68,BR,08-07-2023
215,lang son,21.8333,106.7333,32.08,62,90,4.05,VN,08-07-2023
216,castillos,-34.1667,-53.8333,9.51,74,84,2.89,UY,08-07-2023
217,oppdal,62.5943,9.6912,17.16,59,18,2.18,NO,08-07-2023
218,puerto ayora,-0.7393,-90.3518,24.19,94,88,4.02,EC,08-07-2023
219,nakhon sawan,15.7,100.0833,36.22,52,73,2.86,TH,08-07-2023
220,masuguru,-11.3667,38.4167,31.08,25,44,2.75,TZ,08-07-2023
221,machico,32.7,-16.7667,26.51,77,20,2.06,PT,08-07-2023
222,bengkulu,-3.8004,102.2655,28.73,76,64,4.26,ID,08-07-2023
223,saipan,15.1355,145.701,29.39,100,75,4.63,MP,08-07-2023
224,tromso,69.6496,18.957,13.01,76,20,6.17,NO,08-07-2023
225,lakatoro,-16.0999,167.4164,23.93,79,11,4.55,VU,08-07-2023
226,malango,-2.9627,119.9001,20.48,88,51,0.37,ID,08-07-2023
227,port hedland,-20.3167,118.5667,25.03,15,5,6.17,AU,08-07-2023
228,mkushi,-13.6202,29.3939,23.19,31,0,3.05,ZM,08-07-2023
229,malabar,-33.9667,151.25,15.84,50,0,14.92,AU,08-07-2023
230,rosarito,32.3333,-117.0333,17.54,86,41,1.83,MX,08-07-2023
231,hadibu,12.65,54.0333,28.3,61,77,11.81,YE,08-07-2023
232,caleta de carquin,-11.0925,-77.6267,19.07,81,78,2.69,PE,08-07-2023
233,algarrobo,10.1869,-74.5753,23.89,94,100,2.12,CO,08-07-2023
234,road town,18.4167,-64.6167,28.05,79,76,8.86,VG,08-07-2023
235,dunedin,-45.8742,170.5036,9.89,80,98,1.34,NZ,08-07-2023
236,dudinka,69.4058,86.1778,23.68,76,100,1.81,RU,08-07-2023
237,myeik,12.4333,98.6,27.95,82,100,2.43,MM,08-07-2023
238,laguna,38.421,-121.4238,16.76,71,0,4.12,US,08-07-2023
239,lagos,6.5833,3.75,27.18,88,100,1.68,NG,08-07-2023
240,ghadamis,30.1337,9.5007,38.05,10,0,5.98,LY,08-07-2023
241,ola,59.5833,151.2833,14.34,73,78,1.93,RU,08-07-2023
242,bouarfa,32.53,-1.95,36.13,8,53,11.55,MA,08-07-2023
243,fuerte olimpo,-21.0415,-57.8738,23.92,48,61,3.21,PY,08-07-2023
244,natal,-5.795,-35.2094,23.36,100,75,1.03,BR,08-07-2023
245,nanao,37.05,136.9667,27.93,95,100,7.02,JP,08-07-2023
246,shache,38.4167,77.2406,31.67,17,100,2.23,CN,08-07-2023
247,mazatlan,23.2167,-106.4167,27.98,83,100,0.0,MX,08-07-2023
248,dickinson,29.4608,-95.0513,26.66,91,0,0.0,US,08-07-2023
249,murray bridge,-35.1167,139.2667,12.85,73,5,5.26,AU,08-07-2023
250,hammerfest,70.6634,23.6821,14.25,58,32,6.69,NO,08-07-2023
251,rawson,-43.3002,-65.1023,5.63,61,100,2.13,AR,08-07-2023
252,kerema,-7.9631,145.7785,25.62,89,100,1.2,PG,08-07-2023
253,bukittinggi,-0.3091,100.3706,22.72,87,44,1.56,ID,08-07-2023
254,pertek,38.8663,39.3268,31.76,33,0,3.97,TR,08-07-2023
255,qaqortoq,60.7167,-46.0333,5.52,89,41,2.06,GL,08-07-2023
256,chake chake,-5.2459,39.7666,27.47,59,38,5.17,TZ,08-07-2023
257,milford haven,51.7128,-5.0341,19.5,71,52,7.34,GB,08-07-2023
258,kerikeri,-35.2268,173.9474,9.95,92,93,2.45,NZ,08-07-2023
259,midland,31.9974,-102.0779,26.37,70,75,5.14,US,08-07-2023
260,mansa,29.9833,75.3833,27.0,82,100,4.37,IN,08-07-2023
261,uturoa,-16.7333,-151.4333,27.44,74,3,8.89,PF,08-07-2023
262,falenki,58.3613,51.5946,27.3,65,58,5.52,RU,08-07-2023
263,fale old settlement,-9.3852,-171.2468,28.64,74,100,7.53,TK,08-07-2023
264,mayang imphal,24.6167,93.8833,26.17,87,100,0.84,IN,08-07-2023
265,mirnyy,62.5353,113.9611,20.26,51,80,4.66,RU,08-07-2023
266,fisterra,42.9049,-9.2629,20.42,80,67,2.36,ES,08-07-2023
267,fuling,29.7022,107.3919,31.95,77,62,1.01,CN,08-07-2023
268,nogliki,51.8333,143.1667,14.08,93,59,3.74,RU,08-07-2023
269,faya-largeau,17.9257,19.1043,37.94,16,0,8.23,TD,08-07-2023
270,xam nua,20.4197,104.0439,28.4,61,90,1.33,LA,08-07-2023
271,rurrenabaque,-14.4413,-67.5278,20.32,84,57,0.59,BO,08-07-2023
272,sultanah,24.4926,39.5857,41.25,6,0,4.63,SA,08-07-2023
273,keflavik,64.0049,-22.5624,15.24,55,0,1.03,IS,08-07-2023
274,kuanda,56.3161,116.0806,27.07,41,26,2.86,RU,08-07-2023
275,pisco,-13.7,-76.2167,19.03,68,100,2.06,PE,08-07-2023
276,borogontsy,62.6683,131.1683,11.19,71,100,7.29,RU,08-07-2023
277,nyrob,60.733,56.7202,14.5,98,100,1.26,RU,08-07-2023
278,nyurba,63.2842,118.3319,19.69,42,20,3.35,RU,08-07-2023
279,fereydunshahr,32.941,50.121,29.3,14,0,2.64,IR,08-07-2023
280,obudu,6.6674,9.1716,26.38,81,100,1.95,NG,08-07-2023
281,ambon,-3.6954,128.1814,28.82,95,40,3.6,ID,08-07-2023
282,saudarkrokur,65.7461,-19.6394,15.33,59,57,1.74,IS,08-07-2023
283,west bay,19.3667,-81.4167,28.89,84,4,0.45,KY,08-07-2023
284,mulayjah,27.271,48.4242,47.53,5,23,5.18,SA,08-07-2023
285,pathein,16.7833,94.7333,30.83,68,60,4.84,MM,08-07-2023
286,kalmunai,7.4167,81.8167,29.66,67,52,6.34,LK,08-07-2023
287,arawa,-6.2132,155.5367,24.82,89,100,2.2,PG,08-07-2023
288,usinsk,65.9939,57.5281,12.59,68,100,4.14,RU,08-07-2023
289,meiganga,6.5167,14.3,20.32,93,100,1.03,CM,08-07-2023
290,karaton,-6.3424,106.1045,25.49,89,69,0.86,ID,08-07-2023
291,goondiwindi,-28.55,150.3167,10.32,52,0,3.21,AU,08-07-2023
292,vanimo,-2.6741,141.3028,24.85,92,100,1.28,PG,08-07-2023
293,chegdomyn,51.1167,133.0167,22.47,78,66,1.37,RU,08-07-2023
294,wewak,-3.5534,143.6268,25.38,88,100,3.07,PG,08-07-2023
295,arraial do cabo,-22.9661,-42.0278,16.92,94,4,2.57,BR,08-07-2023
296,san martin,-33.081,-68.4681,2.3,77,0,0.56,AR,08-07-2023
297,puerto baquerizo moreno,-0.9,-89.6,24.5,80,76,6.57,EC,08-07-2023
298,adrar,20.5022,-10.0711,35.22,17,22,6.7,MR,08-07-2023
299,ulan bator,47.9077,106.8832,23.07,46,40,5.0,MN,08-07-2023
300,mariehamn,60.0973,19.9348,17.92,77,0,4.12,AX,08-07-2023
301,qui nhon,13.7667,109.2333,29.12,79,10,5.87,VN,08-07-2023
302,barra,-11.0894,-43.1417,21.89,70,0,3.42,BR,08-07-2023
303,baharly,38.4362,57.4316,39.74,10,0,4.23,TM,08-07-2023
304,tainan,22.9908,120.2133,34.96,70,20,3.6,TW,08-07-2023
305,nelson bay,-32.7167,152.15,16.67,52,0,5.36,AU,08-07-2023
306,susuman,62.7833,148.1667,20.43,52,49,8.03,RU,08-07-2023
307,yung shue wan,22.2333,114.1167,32.01,67,9,5.27,HK,08-07-2023
308,remire-montjoly,4.9167,-52.2667,23.02,100,40,1.03,GF,08-07-2023
309,kuta,-8.7233,115.1723,26.97,88,40,7.72,ID,08-07-2023
310,nabire,-3.3667,135.4833,26.0,88,99,1.05,ID,08-07-2023
311,namtsy,62.7161,129.6658,14.58,41,83,10.1,RU,08-07-2023
312,luderitz,-26.6481,15.1594,16.54,61,37,9.47,NA,08-07-2023
313,la tuque,47.4334,-72.7824,17.14,94,45,0.51,CA,08-07-2023
314,ruthen,51.4909,8.436,28.66,37,0,4.63,DE,08-07-2023
315,la ronge,55.1001,-105.2842,16.12,58,75,3.09,CA,08-07-2023
316,bati,11.1833,40.0167,30.68,27,6,6.33,ET,08-07-2023
317,longyearbyen,78.2186,15.6401,7.91,76,75,6.17,SJ,08-07-2023
318,palu,-0.8917,119.8707,25.46,96,71,0.73,ID,08-07-2023
319,solnechnyy,50.7214,136.6319,25.5,63,32,2.95,RU,08-07-2023
320,tommot,58.9564,126.2925,19.7,61,53,3.39,RU,08-07-2023
321,dolores,-36.3132,-57.6792,5.99,78,100,2.09,AR,08-07-2023
322,gorontalo,0.5412,123.0595,26.2,83,44,1.1,ID,08-07-2023
323,holualoa,19.6228,-155.9522,23.91,85,20,2.57,US,08-07-2023
324,tangalle,6.024,80.7911,34.09,61,28,7.72,LK,08-07-2023
325,acapulco de juarez,16.8634,-99.8901,26.9,83,75,2.06,MX,08-07-2023
326,green river,41.5286,-109.4662,13.88,58,43,0.45,US,08-07-2023
327,salalah,17.0151,54.0924,28.05,89,100,5.14,OM,08-07-2023
328,bikenibeu village,1.3673,173.1241,27.98,89,20,3.6,KI,08-07-2023
329,carnarvon,-24.8667,113.6333,18.91,53,0,6.28,AU,08-07-2023
330,saurimo,-9.6608,20.3916,26.56,24,8,3.95,AO,08-07-2023
331,hobyo,5.3505,48.5268,29.4,58,74,12.68,SO,08-07-2023
332,georgetown,5.4112,100.3354,31.96,67,40,4.12,MY,08-07-2023
333,padang,-0.9492,100.3543,30.03,79,63,2.53,ID,08-07-2023
334,guanica,17.9716,-66.908,26.21,63,93,1.92,PR,08-07-2023
335,monchegorsk,67.9397,32.8739,13.73,48,84,3.97,RU,08-07-2023
336,camacupa,-12.0167,17.4833,23.02,22,5,3.09,AO,08-07-2023
337,palmer,42.1584,-72.3287,23.23,84,100,0.0,US,08-07-2023
338,farafangana,-22.8167,47.8333,22.2,79,96,3.2,MG,08-07-2023
339,moorhead,46.8739,-96.7676,11.1,81,0,3.09,US,08-07-2023
340,northam,51.0333,-4.2167,19.81,91,61,5.51,GB,08-07-2023
341,lock haven,41.137,-77.4469,20.94,99,16,1.04,US,08-07-2023
342,mount isa,-20.7333,139.5,15.87,39,7,3.6,AU,08-07-2023
343,nadym,65.5333,72.5167,20.72,58,93,5.67,RU,08-07-2023
344,pasaje,-3.3333,-79.8167,22.65,94,98,1.05,EC,08-07-2023
345,auki,-8.7676,160.7034,25.34,91,58,2.97,SB,08-07-2023
346,cide,41.8921,33.0044,24.54,79,99,7.84,TR,08-07-2023
347,sechura,-5.5569,-80.8222,21.34,79,78,5.86,PE,08-07-2023
348,nizhniy odes,63.6445,54.856,17.92,46,100,0.63,RU,08-07-2023
349,ta`u,-14.2336,-169.5144,27.38,75,82,7.68,AS,08-07-2023
350,santana,-0.0583,-51.1817,24.1,100,20,0.51,BR,08-07-2023
351,port blair,11.6667,92.75,25.02,100,100,4.63,IN,08-07-2023
352,jalai nur,49.45,117.7,24.34,55,100,2.21,CN,08-07-2023
353,medicine hat,50.0501,-110.6683,14.56,73,0,1.54,CA,08-07-2023
354,paea,-17.6833,-149.5833,24.84,73,0,2.06,PF,08-07-2023
355,prince george,53.9166,-122.753,15.72,80,0,2.57,CA,08-07-2023
356,sitka,57.0531,-135.33,13.94,82,40,6.17,US,08-07-2023
357,lyantonde,-0.4031,31.1572,25.93,41,82,4.57,UG,08-07-2023
358,ganjam,19.3833,85.0667,31.97,67,100,4.52,IN,08-07-2023
359,makarov,48.6333,142.8,19.91,81,2,3.59,RU,08-07-2023
360,kargasok,59.0556,80.8572,21.64,78,71,8.1,RU,08-07-2023
361,san luis de la loma,17.2706,-100.8939,25.19,87,25,1.71,MX,08-07-2023
362,kanuru,16.2858,81.2546,32.54,57,100,7.32,IN,08-07-2023
363,levuka,50.1834,-105.4011,10.9,60,74,2.69,CA,08-07-2023
364,fort bragg,35.139,-79.006,23.44,97,0,1.54,US,08-07-2023
365,bay harbor,30.1471,-85.6146,27.23,83,0,4.63,US,08-07-2023
366,cortez,37.3489,-108.5859,13.72,44,0,3.09,US,08-07-2023
367,los teques,10.3445,-67.0433,17.56,94,97,0.62,VE,08-07-2023
368,geraldton,-28.7667,114.6,17.23,67,0,4.12,AU,08-07-2023
369,bathsheba,13.2167,-59.5167,26.34,94,40,6.17,BB,08-07-2023
370,san julian,21.0167,-102.1667,15.52,84,100,0.72,MX,08-07-2023
371,santo antonio do ica,-3.1022,-67.9397,22.37,99,98,0.8,BR,08-07-2023
372,ponnamaravati,10.3,78.55,33.01,46,100,1.35,IN,08-07-2023
373,spassk,52.747,87.7545,22.64,59,65,3.01,RU,08-07-2023
374,ilhabela,-23.7781,-45.3581,19.14,61,15,2.77,BR,08-07-2023
375,pamandzi,-12.7967,45.2794,27.88,69,20,7.2,YT,08-07-2023
376,awjilah,29.1081,21.2869,35.47,19,0,6.67,LY,08-07-2023
377,rudsar,37.1376,50.288,29.99,54,0,4.51,IR,08-07-2023
378,sarmiento,-45.5882,-69.07,-0.61,81,84,0.81,AR,08-07-2023
379,diamond springs,38.6946,-120.8149,17.64,72,0,1.54,US,08-07-2023
380,prado,-17.3411,-39.2208,20.16,86,0,2.22,BR,08-07-2023
381,nadvoitsy,63.8667,34.3167,10.5,97,100,4.83,RU,08-07-2023
382,fort mcmurray,56.7268,-111.381,16.77,59,40,3.6,CA,08-07-2023
383,crane,31.3974,-102.3501,24.6,62,19,5.51,US,08-07-2023
384,broome,42.2506,-75.833,19.21,95,0,1.54,US,08-07-2023
385,yatou,37.15,122.3833,25.88,88,73,5.0,CN,08-07-2023
386,nakhon phanom,17.3333,104.4167,33.82,65,94,1.1,TH,08-07-2023
387,junin de los andes,-39.9504,-71.0694,1.53,100,100,1.13,AR,08-07-2023
388,marquette,46.5333,-87.6335,14.69,95,100,0.45,US,08-07-2023
389,kharp,66.8014,65.8081,18.41,59,73,2.14,RU,08-07-2023
390,kota belud,6.351,116.4305,27.28,85,37,1.79,MY,08-07-2023
391,kralendijk,12.15,-68.2667,26.99,89,20,4.63,BQ,08-07-2023
392,brezovica,46.0333,14.4,26.05,62,43,0.45,SI,08-07-2023
393,i-n-salah,27.1935,2.4607,43.32,5,2,9.85,DZ,08-07-2023
394,nar'yan-mar,67.6713,53.087,9.79,77,100,3.11,RU,08-07-2023
395,vorkuta,67.5,64.0,14.44,79,99,4.08,RU,08-07-2023
396,benguela,-12.5763,13.4055,24.27,64,57,2.92,AO,08-07-2023
397,tottori,35.5,134.2333,25.04,94,75,2.57,JP,08-07-2023
398,oroqen zizhiqi,50.5667,123.7167,25.34,59,98,0.63,CN,08-07-2023
399,nuku'alofa,-21.1333,-175.2,17.19,94,20,0.0,TO,08-07-2023
400,paita,-5.0892,-81.1144,21.36,80,73,6.08,PE,08-07-2023
401,mizque,-17.941,-65.3402,10.9,79,74,0.89,BO,08-07-2023
402,at taraf,25.3628,49.725,48.3,7,31,6.09,SA,08-07-2023
403,polyarnyy,69.1989,33.4478,9.23,73,25,6.21,RU,08-07-2023
404,murovani kurylivtsi,48.7235,27.5189,20.35,53,100,7.86,UA,08-07-2023
405,kitimat,54.0524,-128.6534,20.21,62,50,0.64,CA,08-07-2023
406,kayangel,8.0823,134.7173,28.87,71,93,2.06,PW,08-07-2023
407,la'ie,21.6477,-157.9253,25.0,78,33,3.13,US,08-07-2023
408,belmonte,-15.8631,-38.8828,22.27,77,16,0.71,BR,08-07-2023
409,dwarka,22.2394,68.9678,26.92,90,100,4.96,IN,08-07-2023
410,tanout,14.9709,8.8879,35.69,29,46,4.79,NE,08-07-2023
411,duragan,41.4158,35.0544,30.15,46,23,1.91,TR,08-07-2023
412,launceston,-41.45,147.1667,9.89,83,99,7.2,AU,08-07-2023
413,novyy urengoy,66.0833,76.6333,21.09,48,87,3.62,RU,08-07-2023
414,baghlan,35.75,69.0,25.7,15,0,4.76,AF,08-07-2023
415,ciudad lazaro cardenas,17.9583,-102.2,25.11,88,11,2.3,MX,08-07-2023
416,san salvador de jujuy,-24.1946,-65.2971,12.74,75,100,0.59,AR,08-07-2023
417,hotan,37.0997,79.9269,27.62,29,99,3.03,CN,08-07-2023
418,salekhard,66.53,66.6019,17.8,65,79,0.62,RU,08-07-2023
419,umm kaddadah,13.6017,26.6876,30.83,45,97,6.34,SD,08-07-2023
420,kamaishi,39.2667,141.8833,19.55,97,100,4.22,JP,08-07-2023
421,battambang,13.1027,103.1982,30.59,63,95,2.62,KH,08-07-2023
422,pospelikha,51.95,81.7667,26.16,46,96,1.87,RU,08-07-2023
423,east london,-33.0153,27.9116,17.52,77,40,5.66,ZA,08-07-2023
424,akureyri,65.6835,-18.0878,13.96,62,0,2.57,IS,08-07-2023
425,changling,44.2653,124.0005,22.71,84,99,3.25,CN,08-07-2023
426,westport,41.1415,-73.3579,23.9,90,75,0.0,US,08-07-2023
427,hamilton,39.1834,-84.5333,21.62,84,0,2.06,US,08-07-2023
428,island harbour,50.724,-1.2758,20.66,89,97,0.89,GB,08-07-2023
429,san jose del guaviare,2.5729,-72.6459,21.74,99,95,0.82,CO,08-07-2023
430,berezovyy,51.6667,135.7,24.64,64,85,1.61,RU,08-07-2023
431,george town,5.4112,100.3354,31.96,67,40,4.12,MY,08-07-2023
432,frankfort,-27.2667,28.4833,17.25,24,5,5.35,ZA,08-07-2023
433,hibaiyo,10.2726,123.321,28.12,83,69,1.24,PH,08-07-2023
434,kharhial,20.2833,82.7667,30.59,63,93,4.26,IN,08-07-2023
435,ghat,24.9647,10.1728,33.23,15,0,7.38,LY,08-07-2023
436,parscov,45.2833,26.55,25.35,43,100,5.25,RO,08-07-2023
437,aquiraz,-3.9014,-38.3911,25.05,88,23,3.8,BR,08-07-2023
438,neuenstein,49.2058,9.5792,30.19,42,0,2.06,DE,08-07-2023
439,ulladulla,-35.35,150.4667,12.89,59,9,8.32,AU,08-07-2023
440,siuna,13.7332,-84.7773,21.88,97,100,0.98,NI,08-07-2023
441,ust-tsilma,65.441,52.1498,15.83,59,100,1.86,RU,08-07-2023
442,macusani,-14.0833,-70.4333,1.47,22,20,2.15,PE,08-07-2023
443,behompy,-23.2496,43.8557,30.85,27,0,1.28,MG,08-07-2023
444,paphos,34.7667,32.4167,34.02,70,20,3.6,CY,08-07-2023
445,quang ngai,15.1167,108.8,31.62,63,10,6.17,VN,08-07-2023
446,mentougou,39.9392,116.0917,36.52,22,42,6.03,CN,08-07-2023
447,bel ombre,-4.6167,55.4167,27.91,83,75,8.75,SC,08-07-2023
448,trondheim,63.4305,10.3951,18.33,71,52,0.56,NO,08-07-2023
449,dakhla,23.6848,-15.958,20.58,83,0,10.18,EH,08-07-2023
450,cape canaveral,28.4058,-80.6048,26.1,90,100,5.14,US,08-07-2023
451,lubumbashi,-11.6609,27.4794,22.79,35,20,3.21,CD,08-07-2023
452,lake albert,-35.1667,147.3833,10.34,84,97,2.24,AU,08-07-2023
453,pagar alam,-4.0167,103.2667,23.39,97,74,0.51,ID,08-07-2023
454,kavieng,-2.5744,150.7967,24.7,91,100,1.55,PG,08-07-2023
455,port moresby,-9.4431,147.1797,25.68,83,75,7.72,PG,08-07-2023
456,yeppoon,-23.1333,150.7333,15.88,43,0,1.94,AU,08-07-2023
457,afif,23.9065,42.9172,41.19,6,5,3.6,SA,08-07-2023
458,kalkaman,51.9525,76.0211,29.02,28,67,8.72,KZ,08-07-2023
459,higashine,38.4389,140.4006,19.87,100,75,1.03,JP,08-07-2023
460,mejit,10.2753,170.8646,28.32,80,97,8.64,MH,08-07-2023
461,howrah,22.5892,88.3103,32.0,74,75,4.63,IN,08-07-2023
462,sao vicente,-23.9631,-46.3919,20.15,26,10,4.02,BR,08-07-2023
463,munduk,-8.2687,115.0795,18.02,96,99,0.11,ID,08-07-2023
464,kidal,18.4411,1.4078,39.25,16,1,3.76,ML,08-07-2023
465,tobruk,32.0836,23.9764,26.97,73,0,7.81,LY,08-07-2023
466,illapel,-31.6308,-71.1653,9.19,80,5,1.08,CL,08-07-2023
467,kudat,6.8837,116.8477,30.96,70,20,4.12,MY,08-07-2023
468,shalqar,47.8333,59.6,37.56,15,8,2.03,KZ,08-07-2023
469,whakatane,-37.9585,176.9854,12.65,99,100,0.45,NZ,08-07-2023
470,zhatay,62.1594,129.8294,18.03,52,0,12.0,RU,08-07-2023
471,hillsboro,45.5229,-122.9898,15.29,82,75,1.54,US,08-07-2023
472,broken hill,-31.95,141.4333,11.07,61,2,4.55,AU,08-07-2023
473,shalkar,47.8288,59.6258,37.55,15,8,2.11,KZ,08-07-2023
474,yoloten,37.2989,62.3597,38.79,10,0,6.53,TM,08-07-2023
475,aral,40.5156,81.2636,33.06,19,88,6.35,CN,08-07-2023
476,silvania,-16.6589,-48.6081,13.68,62,6,1.32,BR,08-07-2023
477,qalat,32.1058,66.9083,31.71,17,40,9.74,AF,08-07-2023
478,sinjai,-5.1241,120.253,25.81,77,26,1.11,ID,08-07-2023
479,csorna,47.6115,17.2501,27.79,41,95,2.52,HU,08-07-2023
480,southold,41.0648,-72.4262,23.48,94,100,0.89,US,08-07-2023
481,gummi,12.1436,5.1081,30.91,51,100,5.7,NG,08-07-2023
482,dire dawa,9.5931,41.8661,29.84,40,4,2.92,ET,08-07-2023
483,mili,6.0815,171.735,28.08,82,94,9.45,MH,08-07-2023
484,coron,11.9986,120.2043,28.41,81,61,1.12,PH,08-07-2023
485,kish,26.5578,54.0194,40.15,47,5,4.12,IR,08-07-2023
486,nova sintra,14.8667,-24.7167,22.53,85,29,3.05,CV,08-07-2023
487,berezniki,59.4152,56.8124,15.93,94,100,1.75,RU,08-07-2023
488,ende,-8.8432,121.6623,25.05,87,72,2.13,ID,08-07-2023
489,monaghan,54.25,-6.9667,19.1,82,100,8.13,IE,08-07-2023
490,pechora,65.1472,57.2244,14.24,70,100,1.28,RU,08-07-2023
491,visby,57.6409,18.296,23.91,82,0,3.6,SE,08-07-2023
492,porto novo,6.4965,2.6036,26.9,89,100,2.78,BJ,08-07-2023
493,roma,43.2128,-75.4557,18.62,97,0,0.0,US,08-07-2023
494,yanahuanca,-10.5167,-76.4986,-1.9,89,27,2.52,PE,08-07-2023
495,floro,61.5996,5.0328,22.35,52,75,2.06,NO,08-07-2023
496,fort wellington,6.4,-57.6,25.27,87,16,3.97,GY,08-07-2023
497,ain el bya,35.8039,-0.3018,30.16,65,21,2.41,DZ,08-07-2023
498,tazacorte,28.629,-17.9293,24.54,82,75,4.63,ES,08-07-2023
499,port saint john's,-31.6229,29.5448,24.33,39,100,1.27,ZA,08-07-2023
500,kristiansund,63.1115,7.732,18.03,63,0,3.09,NO,08-07-2023
501,reggane,26.7158,0.1714,43.24,10,0,7.91,DZ,08-07-2023
502,woodward,36.4337,-99.3904,20.57,89,40,0.0,US,08-07-2023
503,tura,25.5198,90.2201,28.78,79,53,3.27,IN,08-07-2023
504,vila velha,-20.3297,-40.2925,18.3,84,0,0.89,BR,08-07-2023
505,reconquista,-29.15,-59.65,16.51,90,100,3.2,AR,08-07-2023
506,albuquerque,35.0845,-106.6511,25.51,30,0,0.45,US,08-07-2023
507,mournies,35.4764,24.0092,32.22,51,20,5.14,GR,08-07-2023
508,alofi,-19.0595,-169.9187,20.94,94,100,1.54,NU,08-07-2023
509,walvis bay,-22.9575,14.5053,15.53,77,0,0.51,NA,08-07-2023
510,vernon,50.2581,-119.2691,18.74,50,78,2.06,CA,08-07-2023
511,linares,-35.85,-71.6,9.47,90,100,7.1,CL,08-07-2023
512,riyadh,24.6877,46.7219,44.08,5,37,4.36,SA,08-07-2023
513,wakkanai,45.4094,141.6739,20.99,83,20,2.57,JP,08-07-2023
514,mount pearl,47.5166,-52.7813,15.81,97,100,4.63,CA,08-07-2023
515,khilok,51.3674,110.4676,25.75,50,27,2.71,RU,08-07-2023
516,al bardiyah,31.7561,25.0865,29.67,57,0,7.62,LY,08-07-2023
517,kenai,60.5544,-151.2583,9.49,90,100,5.66,US,08-07-2023
518,makushino,55.2103,67.2442,25.56,40,52,5.55,RU,08-07-2023
519,alaghsas,17.0187,8.0168,34.94,34,0,3.09,NE,08-07-2023
520,flin flon,54.7682,-101.865,11.54,62,100,3.53,CA,08-07-2023
521,tevriz,57.509,72.4042,23.5,47,72,4.36,RU,08-07-2023
522,fortaleza,-3.7227,-38.5247,25.07,88,75,3.09,BR,08-07-2023
523,harper,4.375,-7.7169,26.11,76,88,3.95,LR,08-07-2023
524,dipayal,29.2608,80.94,27.32,74,76,2.31,NP,08-07-2023
525,fort-shevchenko,44.5086,50.263,34.25,28,92,9.67,KZ,08-07-2023
526,machali,-34.1833,-70.6667,7.84,72,97,1.9,CL,08-07-2023
527,ialysos,36.4104,28.1655,30.9,47,0,8.23,GR,08-07-2023
528,mesoraca,39.0768,16.7889,26.93,42,0,2.22,IT,08-07-2023
529,iskateley,67.6803,53.1512,9.56,77,100,3.11,RU,08-07-2023
530,kapuskasing,49.4169,-82.4331,15.0,72,75,2.06,CA,08-07-2023
531,zaraza,9.3503,-65.3245,22.63,98,88,1.03,VE,08-07-2023
532,prince rupert,54.3161,-130.3201,13.83,96,100,6.17,CA,08-07-2023
533,yeed,4.55,43.0333,31.67,31,21,10.29,SO,08-07-2023
534,arar,30.9753,41.0381,38.01,12,0,0.0,SA,08-07-2023
535,yerofey pavlovich,53.9667,121.9667,18.92,91,100,0.35,RU,08-07-2023
536,iranshahr,27.2025,60.6848,41.19,10,0,11.83,IR,08-07-2023
537,lodja,-3.4833,23.4333,33.81,19,8,2.5,CD,08-07-2023
538,kittila,67.6647,24.8936,17.01,39,0,4.12,FI,08-07-2023
539,humberto de campos,-2.5983,-43.4611,24.31,89,0,2.12,BR,08-07-2023
540,betio village,1.358,172.9211,28.02,80,66,6.13,KI,08-07-2023
541,saint-pierre-du-mont,43.8845,-0.5219,28.02,73,0,2.06,FR,08-07-2023
542,isangel,-19.55,169.2667,22.47,76,5,3.61,VU,08-07-2023
543,greenville,35.6127,-77.3663,22.29,100,0,0.0,US,08-07-2023
544,pavlovsk,50.4578,40.1081,28.53,52,100,3.35,RU,08-07-2023
545,yuzhno-kurilsk,44.0306,145.8556,14.45,98,70,3.59,RU,08-07-2023
546,illizi,26.4833,8.4667,35.89,11,0,9.3,DZ,08-07-2023
547,mokameh,25.4,85.9167,36.61,45,67,4.92,IN,08-07-2023
548,chulym,55.0997,80.9572,23.37,71,52,5.76,RU,08-07-2023
549,iola,37.9245,-95.4,23.03,94,75,2.06,US,08-07-2023
550,pangody,65.85,74.4859,20.18,55,68,3.88,RU,08-07-2023
551,andovoranto,-18.95,49.1,22.22,87,89,2.13,MG,08-07-2023
552,nouadhibou,20.931,-17.0347,23.99,64,23,5.66,MR,08-07-2023
553,ghatsila,22.6,86.4833,33.25,58,100,2.1,IN,08-07-2023
554,armidale,-30.5167,151.65,3.51,82,0,4.38,AU,08-07-2023
555,quibala,-10.7337,14.98,26.42,20,1,2.57,AO,08-07-2023
556,san andres,12.5847,-81.7006,29.01,79,20,5.14,CO,08-07-2023
557,okha,53.5739,142.9478,12.77,90,84,4.75,RU,08-07-2023
558,o rosal,41.9354,-8.8368,21.23,78,38,3.55,ES,08-07-2023
559,lodwar,3.1191,35.5973,31.0,34,78,4.92,KE,08-07-2023
560,oamaru,-45.0784,170.9801,7.43,85,100,2.83,NZ,08-07-2023
561,gizo,-8.103,156.8419,26.39,87,100,4.97,SB,08-07-2023
562,kili,5.6439,169.1211,28.65,80,100,7.05,MH,08-07-2023
563,axim,4.8699,-2.2405,26.77,76,100,3.75,GH,08-07-2023
564,brookings,44.3114,-96.7984,14.1,98,100,3.6,US,08-07-2023
565,manismata,-2.4667,111.0333,25.07,91,100,1.74,ID,08-07-2023
566,ma'rib,15.4591,45.3253,40.79,5,12,6.39,YE,08-07-2023
567,nizhnyaya poyma,56.1622,97.1933,30.83,28,38,2.85,RU,08-07-2023
568,chibougamau,49.9168,-74.3659,13.79,94,75,0.0,CA,08-07-2023
569,vrangel',42.7297,133.0839,19.72,90,37,2.35,RU,08-07-2023
570,inhambane,-23.865,35.3833,24.99,61,20,5.66,MZ,08-07-2023
571,conceicao do araguaia,-8.2578,-49.2647,21.11,58,19,1.2,BR,08-07-2023
572,jilma,35.2731,9.4239,41.7,13,10,3.92,TN,08-07-2023
573,nikol'sk,53.7189,46.0712,30.83,40,6,3.26,RU,08-07-2023
574,sabha,27.0377,14.4283,34.02,13,1,6.97,LY,08-07-2023
